base_id,base_name,latitude,longitude,num_employees
BASE01,Madhapur Service Hub,17.4483,78.3915,40
BASE02,Gachibowli Service Hub,17.44,78.3489,42
BASE03,Kukatpally Service Hub,17.4948,78.3996,56
BASE04,Secunderabad Service Hub,17.4399,78.4983,47
BASE05,Uppal Service Hub,17.405,78.5591,20
BASE06,LB Nagar Service Hub,17.3497,78.5588,48
BASE07,Banjara Hills Service Hub,17.4126,78.4482,56
BASE08,Shamshabad Service Hub,17.2543,78.4011,31
